{
  "credentials": {
    "email": "demo",
    "password": "password123"
  },
  "users": [
    {
      "id": 1,
      "name": "Muntasir Efaz",
      "email": "muntasir@example.com",
      "phone": "+880 1711-223344",
      "avatar": "https://api.dicebear.com/7.x/avataaars/svg?seed=Muntasir",
      "address": "Dhaka, Bangladesh",
      "route": {
        "point_a": {
          "lat": 23.8103,
          "lng": 90.4125
        },
        "point_b": {
          "lat": 23.7561,
          "lng": 90.3872
        }
      }
    },
    {
      "id": 2,
      "name": "Sara Ahmed",
      "email": "sara@example.com",
      "phone": "+880 1819-556677",
      "avatar": "https://api.dicebear.com/7.x/avataaars/svg?seed=Sara",
      "address": "Chittagong, Bangladesh",
      "route": {
        "point_a": {
          "lat": 22.3569,
          "lng": 91.7832
        },
        "point_b": {
          "lat": 22.3354,
          "lng": 91.8340
        }
      }
    },
    {
      "id": 3,
      "name": "Zayan Malik",
      "email": "zayan@example.com",
      "phone": "+880 1612-998877",
      "avatar": "https://api.dicebear.com/7.x/avataaars/svg?seed=Zayan",
      "address": "Sylhet, Bangladesh",
      "route": {
        "point_a": {
          "lat": 24.8949,
          "lng": 91.8687
        },
        "point_b": {
          "lat": 24.8864,
          "lng": 91.8801
        }
      }
    },
    {
      "id": 4,
      "name": "Nabila Rahman",
      "email": "nabila@example.com",
      "phone": "+880 1914-112233",
      "avatar": "https://api.dicebear.com/7.x/avataaars/svg?seed=Nabila",
      "address": "Khulna, Bangladesh",
      "route": {
        "point_a": {
          "lat": 22.8456,
          "lng": 89.5403
        },
        "point_b": {
          "lat": 22.8200,
          "lng": 89.5500
        }
      }
    },
    {
      "id": 5,
      "name": "Arif Islam",
      "email": "arif@example.com",
      "phone": "+880 1515-445566",
      "avatar": "https://api.dicebear.com/7.x/avataaars/svg?seed=Arif",
      "address": "Rajshahi, Bangladesh",
      "route": {
        "point_a": {
          "lat": 24.3745,
          "lng": 88.6042
        },
        "point_b": {
          "lat": 24.3636,
          "lng": 88.6241
        }
      }
    },
    {
      "id": 6,
      "name": "Tasnim Karim",
      "email": "tasnim@example.com",
      "phone": "+880 1312-778899",
      "avatar": "https://api.dicebear.com/7.x/avataaars/svg?seed=Tasnim",
      "address": "Barisal, Bangladesh",
      "route": {
        "point_a": {
          "lat": 22.7010,
          "lng": 90.3535
        },
        "point_b": {
          "lat": 22.7150,
          "lng": 90.3650
        }
      }
    },
    {
      "id": 7,
      "name": "Fahim Shahriar",
      "email": "fahim@example.com",
      "phone": "+880 1712-334455",
      "avatar": "https://api.dicebear.com/7.x/avataaars/svg?seed=Fahim",
      "address": "Rangpur, Bangladesh",
      "route": {
        "point_a": {
          "lat": 25.7439,
          "lng": 89.2752
        },
        "point_b": {
          "lat": 25.7550,
          "lng": 89.2500
        }
      }
    },
    {
      "id": 8,
      "name": "Sadia Chowdhury",
      "email": "sadia@example.com",
      "phone": "+880 1813-667788",
      "avatar": "https://api.dicebear.com/7.x/avataaars/svg?seed=Sadia",
      "address": "Comilla, Bangladesh",
      "route": {
        "point_a": {
          "lat": 23.4607,
          "lng": 91.1809
        },
        "point_b": {
          "lat": 23.4500,
          "lng": 91.2000
        }
      }
    },
    {
      "id": 9,
      "name": "Tanvir Hasan",
      "email": "tanvir@example.com",
      "phone": "+880 1614-223344",
      "avatar": "https://api.dicebear.com/7.x/avataaars/svg?seed=Tanvir",
      "address": "Mymensingh, Bangladesh",
      "route": {
        "point_a": {
          "lat": 24.7471,
          "lng": 90.4203
        },
        "point_b": {
          "lat": 24.7580,
          "lng": 90.4050
        }
      }
    },
    {
      "id": 10,
      "name": "Anika Tabassum",
      "email": "anika@example.com",
      "phone": "+880 1915-556677",
      "avatar": "https://api.dicebear.com/7.x/avataaars/svg?seed=Anika",
      "address": "Gazipur, Bangladesh",
      "route": {
        "point_a": {
          "lat": 23.9999,
          "lng": 90.4200
        },
        "point_b": {
          "lat": 24.0200,
          "lng": 90.4300
        }
      }
    },
    {
      "id": 11,
      "name": "Riyadh Hossain",
      "email": "riyadh@example.com",
      "phone": "+880 1516-889900",
      "avatar": "https://api.dicebear.com/7.x/avataaars/svg?seed=Riyadh",
      "address": "Narayanganj, Bangladesh",
      "route": {
        "point_a": {
          "lat": 23.6238,
          "lng": 90.5000
        },
        "point_b": {
          "lat": 23.6100,
          "lng": 90.5200
        }
      }
    },
    {
      "id": 12,
      "name": "Meherin Obaid",
      "email": "meherin@example.com",
      "phone": "+880 1314-112233",
      "avatar": "https://api.dicebear.com/7.x/avataaars/svg?seed=Meherin",
      "address": "Bogura, Bangladesh",
      "route": {
        "point_a": {
          "lat": 24.8481,
          "lng": 89.3730
        },
        "point_b": {
          "lat": 24.8600,
          "lng": 89.3600
        }
      }
    },
    {
      "id": 13,
      "name": "Imran Khan",
      "email": "imran@example.com",
      "phone": "+880 1715-445566",
      "avatar": "https://api.dicebear.com/7.x/avataaars/svg?seed=Imran",
      "address": "Cox's Bazar, Bangladesh",
      "route": {
        "point_a": {
          "lat": 21.4272,
          "lng": 91.9701
        },
        "point_b": {
          "lat": 21.4400,
          "lng": 91.9500
        }
      }
    },
    {
      "id": 14,
      "name": "Farhana Yasmin",
      "email": "farhana@example.com",
      "phone": "+880 1816-778899",
      "avatar": "https://api.dicebear.com/7.x/avataaars/svg?seed=Farhana",
      "address": "Jessore, Bangladesh",
      "route": {
        "point_a": {
          "lat": 23.1664,
          "lng": 89.2081
        },
        "point_b": {
          "lat": 23.1500,
          "lng": 89.2300
        }
      }
    },
    {
      "id": 15,
      "name": "Sajid Ahmed",
      "email": "sajid@example.com",
      "phone": "+880 1617-113355",
      "avatar": "https://api.dicebear.com/7.x/avataaars/svg?seed=Sajid",
      "address": "Dinajpur, Bangladesh",
      "route": {
        "point_a": {
          "lat": 25.6217,
          "lng": 88.6358
        },
        "point_b": {
          "lat": 25.6400,
          "lng": 88.6200
        }
      }
    },
    {
      "id": 16,
      "name": "Raisa Karim",
      "email": "raisa@example.com",
      "phone": "+880 1918-224466",
      "avatar": "https://api.dicebear.com/7.x/avataaars/svg?seed=Raisa",
      "address": "Tangail, Bangladesh",
      "route": {
        "point_a": {
          "lat": 24.2513,
          "lng": 89.9167
        },
        "point_b": {
          "lat": 24.2700,
          "lng": 89.9000
        }
      }
    },
    {
      "id": 17,
      "name": "Asif Nawaz",
      "email": "asif@example.com",
      "phone": "+880 1519-887766",
      "avatar": "https://api.dicebear.com/7.x/avataaars/svg?seed=Asif",
      "address": "Feni, Bangladesh",
      "route": {
        "point_a": {
          "lat": 23.0159,
          "lng": 91.3976
        },
        "point_b": {
          "lat": 23.0300,
          "lng": 91.3800
        }
      }
    },
    {
      "id": 18,
      "name": "Khadija Begum",
      "email": "khadija@example.com",
      "phone": "+880 1316-443322",
      "avatar": "https://api.dicebear.com/7.x/avataaars/svg?seed=Khadija",
      "address": "Kushtia, Bangladesh",
      "route": {
        "point_a": {
          "lat": 23.9014,
          "lng": 89.1204
        },
        "point_b": {
          "lat": 23.9200,
          "lng": 89.1000
        }
      }
    },
    {
      "id": 19,
      "name": "Niaz Morshed",
      "email": "niaz@example.com",
      "phone": "+880 1719-990011",
      "avatar": "https://api.dicebear.com/7.x/avataaars/svg?seed=Niaz",
      "address": "Pabna, Bangladesh",
      "route": {
        "point_a": {
          "lat": 24.0064,
          "lng": 89.2334
        },
        "point_b": {
          "lat": 24.0200,
          "lng": 89.2100
        }
      }
    },
    {
      "id": 20,
      "name": "Tamanna Chowdhury",
      "email": "tamanna@example.com",
      "phone": "+880 1812-115599",
      "avatar": "https://api.dicebear.com/7.x/avataaars/svg?seed=Tamanna",
      "address": "Faridpur, Bangladesh",
      "route": {
        "point_a": {
          "lat": 23.6072,
          "lng": 89.8429
        },
        "point_b": {
          "lat": 23.5900,
          "lng": 89.8600
        }
      }
    }
  ]
}